{
  "type": "FeatureCollection",
  "features": [
    {
      "type": "Feature",
      "geometry": {
        "type": "Point",
        "coordinates": [
          -0.355979743,
          49.183507579
        ]
      },
      "properties": {
        "name": "Acqueduc Vendeuvre / Quai François Mitterrand",
        "context": "Caen, Calvados",
        "citycode": "14118",
        "depcode": "14"
      }
    },
    {
      "type": "Feature",
      "geometry": {
        "type": "Point",
        "coordinates": [
          -0.388655059,
          49.169756946
        ]
      },
      "properties": {
        "name": "Allée Baudelaire / Rue Constant Forget",
        "context": "Caen, Calvados",
        "citycode": "14118",
        "depcode": "14"
      }
    },
    {
      "type": "Feature",
      "geometry": {
        "type": "Point",
        "coordinates": [
          -0.34944655,
          49.188695318
        ]
      },
      "properties": {
        "name": "Allée Cécile de Normandie / Avenue Georges Clemenceau",
        "context": "Caen, Calvados",
        "citycode": "14118",
        "depcode": "14"
      }
    },
    {
      "type": "Feature",
      "geometry": {
        "type": "Point",
        "coordinates": [
          -0.34528329,
          49.163297104
        ]
      },
      "properties": {
        "name": "Allée Charles Gassion / Rue Germaine Tillion",
        "context": "Caen, Calvados",
        "citycode": "14118",
        "depcode": "14"
      }
    },
    {
      "type": "Feature",
      "geometry": {
        "type": "Point",
        "coordinates": [
          -0.402071527,
          49.192025602
        ]
      },
      "properties": {
        "name": "Allée d'Auderville / Allée de Jobourg",
        "context": "Caen, Calvados",
        "citycode": "14118",
        "depcode": "14"
      }
    },
    {
      "type": "Feature",
      "geometry": {
        "type": "Point",
        "coordinates": [
          -0.337298741,
          49.186996333
        ]
      },
      "properties": {
        "name": "Allée de Beaufort / Rue Montmorency",
        "context": "Caen, Calvados",
        "citycode": "14118",
        "depcode": "14"
      }
    },
    {
      "type": "Feature",
      "geometry": {
        "type": "Point",
        "coordinates": [
          -0.386978079,
          49.193465642
        ]
      },
      "properties": {
        "name": "Allée de Franche-Comté / Avenue Robert Schuman",
        "context": "Caen, Calvados",
        "citycode": "14118",
        "depcode": "14"
      }
    },
    {
      "type": "Feature",
      "geometry": {
        "type": "Point",
        "coordinates": [
          -0.402411026,
          49.19190317
        ]
      },
      "properties": {
        "name": "Allée de Jobourg / Allée d'Ecalgrain",
        "context": "Caen, Calvados",
        "citycode": "14118",
        "depcode": "14"
      }
    },
    {
      "type": "Feature",
      "geometry": {
        "type": "Point",
        "coordinates": [
          -0.401758022,
          49.192151597
        ]
      },
      "properties": {
        "name": "Allée de Jobourg / Allée d'Octeville",
        "context": "Caen, Calvados",
        "citycode": "14118",
        "depcode": "14"
      }
    },
    {
      "type": "Feature",
      "geometry": {
        "type": "Point",
        "coordinates": [
          -0.402719667,
          49.19179179
        ]
      },
      "properties": {
        "name": "Allée de Jobourg / Rue du Cotentin",
        "context": "Caen, Calvados",
        "citycode": "14118",
        "depcode": "14"
      }
    },
    {
      "type": "Feature",
      "geometry": {
        "type": "Point",
        "coordinates": [
          -0.390144765,
          49.170985714
        ]
      },
      "properties": {
        "name": "Allée de l'Acacia / Rue Constant Forget",
        "context": "Caen, Calvados",
        "citycode": "14118",
        "depcode": "14"
      }
    },
    {
      "type": "Feature",
      "geometry": {
        "type": "Point",
        "coordinates": [
          -0.354224956,
          49.204465869
        ]
      },
      "properties": {
        "name": "Allée de l'Espoir / Allée des Boréales",
        "context": "Caen, Calvados",
        "citycode": "14118",
        "depcode": "14"
      }
    },
    {
      "type": "Feature",
      "geometry": {
        "type": "Point",
        "coordinates": [
          -0.351860546,
          49.2044559
        ]
      },
      "properties": {
        "name": "Allée de l'Espoir / Avenue du Général Harris D60",
        "context": "Caen, Calvados",
        "citycode": "14118",
        "depcode": "14"
      }
    },
    {
      "type": "Feature",
      "geometry": {
        "type": "Point",
        "coordinates": [
          -0.374778739,
          49.192806923
        ]
      },
      "properties": {
        "name": "Allée de la Pommeraie / Boulevard Jean Moulin",
        "context": "Caen, Calvados",
        "citycode": "14118",
        "depcode": "14"
      }
    },
    {
      "type": "Feature",
      "geometry": {
        "type": "Point",
        "coordinates": [
          -0.338401117,
          49.185699278
        ]
      },
      "properties": {
        "name": "Allée de la Tour des Gens d'Armes / Rue Basse",
        "context": "Caen, Calvados",
        "citycode": "14118",
        "depcode": "14"
      }
    },
    {
      "type": "Feature",
      "geometry": {
        "type": "Point",
        "coordinates": [
          -0.37806381,
          49.195223628
        ]
      },
      "properties": {
        "name": "Allée de la Verte Vallée / Allée du Roc en Val",
        "context": "Caen, Calvados",
        "citycode": "14118",
        "depcode": "14"
      }
    },
    {
      "type": "Feature",
      "geometry": {
        "type": "Point",
        "coordinates": [
          -0.375078521,
          49.192350069
        ]
      },
      "properties": {
        "name": "Allée de la Verte Vallée / Boulevard Jean Moulin",
        "context": "Caen, Calvados",
        "citycode": "14118",
        "depcode": "14"
      }
    },
    {
      "type": "Feature",
      "geometry": {
        "type": "Point",
        "coordinates": [
          -0.37775396,
          49.195149936
        ]
      },
      "properties": {
        "name": "Allée de la Verte Vallée / Chemin du Champ de Tir",
        "context": "Caen, Calvados",
        "citycode": "14118",
        "depcode": "14"
      }
    },
    {
      "type": "Feature",
      "geometry": {
        "type": "Point",
        "coordinates": [
          -0.400560469,
          49.191214794
        ]
      },
      "properties": {
        "name": "Allée de Lessay / Allée de Dielette",
        "context": "Caen, Calvados",
        "citycode": "14118",
        "depcode": "14"
      }
    },
    {
      "type": "Feature",
      "geometry": {
        "type": "Point",
        "coordinates": [
          -0.401055737,
          49.19183887
        ]
      },
      "properties": {
        "name": "Allée de Lessay / Allée de Saint-Marcouf",
        "context": "Caen, Calvados",
        "citycode": "14118",
        "depcode": "14"
      }
    },
    {
      "type": "Feature",
      "geometry": {
        "type": "Point",
        "coordinates": [
          -0.396122549,
          49.175546854
        ]
      },
      "properties": {
        "name": "Allée de Livermead / Rue du Maréchal Gallieni",
        "context": "Caen, Calvados",
        "citycode": "14118",
        "depcode": "14"
      }
    },
    {
      "type": "Feature",
      "geometry": {
        "type": "Point",
        "coordinates": [
          -0.399725559,
          49.175155809
        ]
      },
      "properties": {
        "name": "Allée de Livermead / Rue Wace",
        "context": "Caen, Calvados",
        "citycode": "14118",
        "depcode": "14"
      }
    },
    {
      "type": "Feature",
      "geometry": {
        "type": "Point",
        "coordinates": [
          -0.401896072,
          49.19183576
        ]
      },
      "properties": {
        "name": "Allée de Morsalines / Allée d'Auderville",
        "context": "Caen, Calvados",
        "citycode": "14118",
        "depcode": "14"
      }
    },
    {
      "type": "Feature",
      "geometry": {
        "type": "Point",
        "coordinates": [
          -0.401578791,
          49.1919652
        ]
      },
      "properties": {
        "name": "Allée de Morsalines / Allée d'Octeville",
        "context": "Caen, Calvados",
        "citycode": "14118",
        "depcode": "14"
      }
    },
    {
      "type": "Feature",
      "geometry": {
        "type": "Point",
        "coordinates": [
          -0.401252445,
          49.192059383
        ]
      },
      "properties": {
        "name": "Allée de Morsalines / Allée de Lessay",
        "context": "Caen, Calvados",
        "citycode": "14118",
        "depcode": "14"
      }
    },
    {
      "type": "Feature",
      "geometry": {
        "type": "Point",
        "coordinates": [
          -0.399962491,
          49.192554322
        ]
      },
      "properties": {
        "name": "Allée de Morsalines / Rue d'Authie",
        "context": "Caen, Calvados",
        "citycode": "14118",
        "depcode": "14"
      }
    },
    {
      "type": "Feature",
      "geometry": {
        "type": "Point",
        "coordinates": [
          -0.400625781,
          49.192940351
        ]
      },
      "properties": {
        "name": "Allée de Quettehou / Rue d'Authie",
        "context": "Caen, Calvados",
        "citycode": "14118",
        "depcode": "14"
      }
    },
    {
      "type": "Feature",
      "geometry": {
        "type": "Point",
        "coordinates": [
          -0.400638462,
          49.191981088
        ]
      },
      "properties": {
        "name": "Allée de Saint-Marcouf / Allée de Lessay",
        "context": "Caen, Calvados",
        "citycode": "14118",
        "depcode": "14"
      }
    },
    {
      "type": "Feature",
      "geometry": {
        "type": "Point",
        "coordinates": [
          -0.400026704,
          49.192222293
        ]
      },
      "properties": {
        "name": "Allée de Saint-Marcouf / Allée de Morsalines",
        "context": "Caen, Calvados",
        "citycode": "14118",
        "depcode": "14"
      }
    },
    {
      "type": "Feature",
      "geometry": {
        "type": "Point",
        "coordinates": [
          -0.388392813,
          49.181539674
        ]
      },
      "properties": {
        "name": "Allée des Abricotiers / Allée des Merisiers",
        "context": "Caen, Calvados",
        "citycode": "14118",
        "depcode": "14"
      }
    },
    {
      "type": "Feature",
      "geometry": {
        "type": "Point",
        "coordinates": [
          -0.387999984,
          49.180998858
        ]
      },
      "properties": {
        "name": "Allée des Abricotiers / Boulevard André Detolle",
        "context": "Caen, Calvados",
        "citycode": "14118",
        "depcode": "14"
      }
    },
    {
      "type": "Feature",
      "geometry": {
        "type": "Point",
        "coordinates": [
          -0.390714099,
          49.181839627
        ]
      },
      "properties": {
        "name": "Allée des Abricotiers / Rue des Coutures",
        "context": "Caen, Calvados",
        "citycode": "14118",
        "depcode": "14"
      }
    },
    {
      "type": "Feature",
      "geometry": {
        "type": "Point",
        "coordinates": [
          -0.35573332,
          49.204415605
        ]
      },
      "properties": {
        "name": "Allée des Bambins / Allée de l'Espoir",
        "context": "Caen, Calvados",
        "citycode": "14118",
        "depcode": "14"
      }
    },
    {
      "type": "Feature",
      "geometry": {
        "type": "Point",
        "coordinates": [
          -0.355742697,
          49.2044213
        ]
      },
      "properties": {
        "name": "Allée des Bambins / Allée des Urgences",
        "context": "Caen, Calvados",
        "citycode": "14118",
        "depcode": "14"
      }
    },
    {
      "type": "Feature",
      "geometry": {
        "type": "Point",
        "coordinates": [
          -0.387094285,
          49.177755201
        ]
      },
      "properties": {
        "name": "Allée des Bouleaux / Rue Hardouin Mansard",
        "context": "Caen, Calvados",
        "citycode": "14118",
        "depcode": "14"
      }
    },
    {
      "type": "Feature",
      "geometry": {
        "type": "Point",
        "coordinates": [
          -0.373683329,
          49.190983226
        ]
      },
      "properties": {
        "name": "Allée des Cèdres / Avenue de Creully",
        "context": "Caen, Calvados",
        "citycode": "14118",
        "depcode": "14"
      }
    },
    {
      "type": "Feature",
      "geometry": {
        "type": "Point",
        "coordinates": [
          -0.377911856,
          49.20578738
        ]
      },
      "properties": {
        "name": "Allée des Charmins / Rue du Bengale",
        "context": "Caen, Calvados",
        "citycode": "14118",
        "depcode": "14"
      }
    },
    {
      "type": "Feature",
      "geometry": {
        "type": "Point",
        "coordinates": [
          -0.35079869,
          49.171135715
        ]
      },
      "properties": {
        "name": "Allée des Fleurs / Boulevard Leroy",
        "context": "Caen, Calvados",
        "citycode": "14118",
        "depcode": "14"
      }
    },
    {
      "type": "Feature",
      "geometry": {
        "type": "Point",
        "coordinates": [
          -0.350200458,
          49.1687858
        ]
      },
      "properties": {
        "name": "Allée des Fleurs / Rue des Anémones",
        "context": "Caen, Calvados",
        "citycode": "14118",
        "depcode": "14"
      }
    },
    {
      "type": "Feature",
      "geometry": {
        "type": "Point",
        "coordinates": [
          -0.350054969,
          49.168198814
        ]
      },
      "properties": {
        "name": "Allée des Fleurs / Rue des Chèvrefeuilles",
        "context": "Caen, Calvados",
        "citycode": "14118",
        "depcode": "14"
      }
    },
    {
      "type": "Feature",
      "geometry": {
        "type": "Point",
        "coordinates": [
          -0.349916298,
          49.167674789
        ]
      },
      "properties": {
        "name": "Allée des Fleurs / Rue des Muguets",
        "context": "Caen, Calvados",
        "citycode": "14118",
        "depcode": "14"
      }
    },
    {
      "type": "Feature",
      "geometry": {
        "type": "Point",
        "coordinates": [
          -0.350360809,
          49.16943727
        ]
      },
      "properties": {
        "name": "Allée des Fleurs / Rue des Primevères",
        "context": "Caen, Calvados",
        "citycode": "14118",
        "depcode": "14"
      }
    },
    {
      "type": "Feature",
      "geometry": {
        "type": "Point",
        "coordinates": [
          -0.350581978,
          49.170369615
        ]
      },
      "properties": {
        "name": "Allée des Fleurs / Rue des Violettes",
        "context": "Caen, Calvados",
        "citycode": "14118",
        "depcode": "14"
      }
    },
    {
      "type": "Feature",
      "geometry": {
        "type": "Point",
        "coordinates": [
          -0.375778975,
          49.193001696
        ]
      },
      "properties": {
        "name": "Allée des Florals / Allée de la Verte Vallée",
        "context": "Caen, Calvados",
        "citycode": "14118",
        "depcode": "14"
      }
    },
    {
      "type": "Feature",
      "geometry": {
        "type": "Point",
        "coordinates": [
          -0.373447323,
          49.213099852
        ]
      },
      "properties": {
        "name": "Allée des Jumièges / Allée du Bocage",
        "context": "Caen, Calvados",
        "citycode": "14118",
        "depcode": "14"
      }
    },
    {
      "type": "Feature",
      "geometry": {
        "type": "Point",
        "coordinates": [
          -0.388407829,
          49.181546565
        ]
      },
      "properties": {
        "name": "Allée des Merisiers / Allée des Abricotiers",
        "context": "Caen, Calvados",
        "citycode": "14118",
        "depcode": "14"
      }
    },
    {
      "type": "Feature",
      "geometry": {
        "type": "Point",
        "coordinates": [
          -0.387815603,
          49.181316775
        ]
      },
      "properties": {
        "name": "Allée des Merisiers / Boulevard André Detolle",
        "context": "Caen, Calvados",
        "citycode": "14118",
        "depcode": "14"
      }
    },
    {
      "type": "Feature",
      "geometry": {
        "type": "Point",
        "coordinates": [
          -0.390486399,
          49.182430014
        ]
      },
      "properties": {
        "name": "Allée des Merisiers / Rue des Coutures",
        "context": "Caen, Calvados",
        "citycode": "14118",
        "depcode": "14"
      }
    },
    {
      "type": "Feature",
      "geometry": {
        "type": "Point",
        "coordinates": [
          -0.355637108,
          49.191798083
        ]
      },
      "properties": {
        "name": "Allée des Orchidées / Rue d'Hérouville",
        "context": "Caen, Calvados",
        "citycode": "14118",
        "depcode": "14"
      }
    },
    {
      "type": "Feature",
      "geometry": {
        "type": "Point",
        "coordinates": [
          -0.374362356,
          49.189498372
        ]
      },
      "properties": {
        "name": "Allée des Passeroses / Rue des Rosiers",
        "context": "Caen, Calvados",
        "citycode": "14118",
        "depcode": "14"
      }
    },
    {
      "type": "Feature",
      "geometry": {
        "type": "Point",
        "coordinates": [
          -0.373133351,
          49.189443195
        ]
      },
      "properties": {
        "name": "Allée des Passeroses / Venèlle du Jardin des Plantes",
        "context": "Caen, Calvados",
        "citycode": "14118",
        "depcode": "14"
      }
    },
    {
      "type": "Feature",
      "geometry": {
        "type": "Point",
        "coordinates": [
          -0.390685891,
          49.182021749
        ]
      },
      "properties": {
        "name": "Allée des Pêchers / Rue des Coutures",
        "context": "Caen, Calvados",
        "citycode": "14118",
        "depcode": "14"
      }
    },
    {
      "type": "Feature",
      "geometry": {
        "type": "Point",
        "coordinates": [
          -0.391517171,
          49.182427632
        ]
      },
      "properties": {
        "name": "Allée des Pêchers / Rue du Général Duparge",
        "context": "Caen, Calvados",
        "citycode": "14118",
        "depcode": "14"
      }
    },
    {
      "type": "Feature",
      "geometry": {
        "type": "Point",
        "coordinates": [
          -0.391519812,
          49.182426938
        ]
      },
      "properties": {
        "name": "Allée des Pêchers / Rue Monseigneur Adam",
        "context": "Caen, Calvados",
        "citycode": "14118",
        "depcode": "14"
      }
    },
    {
      "type": "Feature",
      "geometry": {
        "type": "Point",
        "coordinates": [
          -0.395114171,
          49.184969704
        ]
      },
      "properties": {
        "name": "Allée des Pépinières / Rue de Bayeux",
        "context": "Caen, Calvados",
        "citycode": "14118",
        "depcode": "14"
      }
    },
    {
      "type": "Feature",
      "geometry": {
        "type": "Point",
        "coordinates": [
          -0.377011311,
          49.203721053
        ]
      },
      "properties": {
        "name": "Allée des Pins / Allée du Bosphore",
        "context": "Caen, Calvados",
        "citycode": "14118",
        "depcode": "14"
      }
    },
    {
      "type": "Feature",
      "geometry": {
        "type": "Point",
        "coordinates": [
          -0.388222286,
          49.180470317
        ]
      },
      "properties": {
        "name": "Allée des Poiriers / Boulevard André Detolle",
        "context": "Caen, Calvados",
        "citycode": "14118",
        "depcode": "14"
      }
    },
    {
      "type": "Feature",
      "geometry": {
        "type": "Point",
        "coordinates": [
          -0.390898109,
          49.181249438
        ]
      },
      "properties": {
        "name": "Allée des Poiriers / Rue des Coutures",
        "context": "Caen, Calvados",
        "citycode": "14118",
        "depcode": "14"
      }
    },
    {
      "type": "Feature",
      "geometry": {
        "type": "Point",
        "coordinates": [
          -0.362842818,
          49.184904828
        ]
      },
      "properties": {
        "name": "Allée des Quatrans / Rue de Geôle",
        "context": "Caen, Calvados",
        "citycode": "14118",
        "depcode": "14"
      }
    },
    {
      "type": "Feature",
      "geometry": {
        "type": "Point",
        "coordinates": [
          -0.362808815,
          49.18404769
        ]
      },
      "properties": {
        "name": "Allée des Quatrans / Rue des Teinturiers",
        "context": "Caen, Calvados",
        "citycode": "14118",
        "depcode": "14"
      }
    },
    {
      "type": "Feature",
      "geometry": {
        "type": "Point",
        "coordinates": [
          -0.362791484,
          49.184257617
        ]
      },
      "properties": {
        "name": "Allée des Quatrans / Square des Quatrans",
        "context": "Caen, Calvados",
        "citycode": "14118",
        "depcode": "14"
      }
    },
    {
      "type": "Feature",
      "geometry": {
        "type": "Point",
        "coordinates": [
          -0.40637389,
          49.187833594
        ]
      },
      "properties": {
        "name": "Allée des Ravenelles / Rue de l'Église",
        "context": "Caen, Calvados",
        "citycode": "14118",
        "depcode": "14"
      }
    },
    {
      "type": "Feature",
      "geometry": {
        "type": "Point",
        "coordinates": [
          -0.35003369,
          49.193581031
        ]
      },
      "properties": {
        "name": "Allée des Thuyas / Rue d'Hérouville",
        "context": "Caen, Calvados",
        "citycode": "14118",
        "depcode": "14"
      }
    },
    {
      "type": "Feature",
      "geometry": {
        "type": "Point",
        "coordinates": [
          -0.391416938,
          49.194312145
        ]
      },
      "properties": {
        "name": "Allée des Tourterelles / Allée de Franche-Comté",
        "context": "Caen, Calvados",
        "citycode": "14118",
        "depcode": "14"
      }
    },
    {
      "type": "Feature",
      "geometry": {
        "type": "Point",
        "coordinates": [
          -0.391891905,
          49.194798831
        ]
      },
      "properties": {
        "name": "Allée des Tourterelles / Rue de Champagne",
        "context": "Caen, Calvados",
        "citycode": "14118",
        "depcode": "14"
      }
    },
    {
      "type": "Feature",
      "geometry": {
        "type": "Point",
        "coordinates": [
          -0.35573359,
          49.204427651
        ]
      },
      "properties": {
        "name": "Allée des Urgences / Allée de l'Espoir",
        "context": "Caen, Calvados",
        "citycode": "14118",
        "depcode": "14"
      }
    },
    {
      "type": "Feature",
      "geometry": {
        "type": "Point",
        "coordinates": [
          -0.355818381,
          49.206009345
        ]
      },
      "properties": {
        "name": "Allée des Urgences / Avenue Professeur André Morice",
        "context": "Caen, Calvados",
        "citycode": "14118",
        "depcode": "14"
      }
    },
    {
      "type": "Feature",
      "geometry": {
        "type": "Point",
        "coordinates": [
          -0.334246262,
          49.179427858
        ]
      },
      "properties": {
        "name": "Allée du Bac / Cours Montalivet D513",
        "context": "Caen, Calvados",
        "citycode": "14118",
        "depcode": "14"
      }
    },
    {
      "type": "Feature",
      "geometry": {
        "type": "Point",
        "coordinates": [
          -0.33340216,
          49.179293322
        ]
      },
      "properties": {
        "name": "Allée du Bac / Rue du Bac",
        "context": "Caen, Calvados",
        "citycode": "14118",
        "depcode": "14"
      }
    },
    {
      "type": "Feature",
      "geometry": {
        "type": "Point",
        "coordinates": [
          -0.378153248,
          49.2120286
        ]
      },
      "properties": {
        "name": "Allée du Bec Hellouin / Rue d'Épron",
        "context": "Caen, Calvados",
        "citycode": "14118",
        "depcode": "14"
      }
    },
    {
      "type": "Feature",
      "geometry": {
        "type": "Point",
        "coordinates": [
          -0.378194226,
          49.212599137
        ]
      },
      "properties": {
        "name": "Allée du Bec Hellouin / Rue de la Lucerne CD177",
        "context": "Caen, Calvados",
        "citycode": "14118",
        "depcode": "14"
      }
    },
    {
      "type": "Feature",
      "geometry": {
        "type": "Point",
        "coordinates": [
          -0.378124573,
          49.204081354
        ]
      },
      "properties": {
        "name": "Allée du Bosphore / Allée des Charmins",
        "context": "Caen, Calvados",
        "citycode": "14118",
        "depcode": "14"
      }
    },
    {
      "type": "Feature",
      "geometry": {
        "type": "Point",
        "coordinates": [
          -0.377016433,
          49.203722356
        ]
      },
      "properties": {
        "name": "Allée du Bosphore / Allée des Pins",
        "context": "Caen, Calvados",
        "citycode": "14118",
        "depcode": "14"
      }
    },
    {
      "type": "Feature",
      "geometry": {
        "type": "Point",
        "coordinates": [
          -0.375793632,
          49.204037938
        ]
      },
      "properties": {
        "name": "Allée du Bosphore / Rue du Bengale",
        "context": "Caen, Calvados",
        "citycode": "14118",
        "depcode": "14"
      }
    },
    {
      "type": "Feature",
      "geometry": {
        "type": "Point",
        "coordinates": [
          -0.365345797,
          49.186092185
        ]
      },
      "properties": {
        "name": "Allée du Chat qui Veille / Chemin des Fossés du Château",
        "context": "Caen, Calvados",
        "citycode": "14118",
        "depcode": "14"
      }
    },
    {
      "type": "Feature",
      "geometry": {
        "type": "Point",
        "coordinates": [
          -0.365363581,
          49.186040135
        ]
      },
      "properties": {
        "name": "Allée du Chat qui Veille / Rue de Geôle",
        "context": "Caen, Calvados",
        "citycode": "14118",
        "depcode": "14"
      }
    },
    {
      "type": "Feature",
      "geometry": {
        "type": "Point",
        "coordinates": [
          -0.39697058,
          49.172004577
        ]
      },
      "properties": {
        "name": "Allée du Clos de la Bergerie / Avenue Henry Chéron",
        "context": "Caen, Calvados",
        "citycode": "14118",
        "depcode": "14"
      }
    },
    {
      "type": "Feature",
      "geometry": {
        "type": "Point",
        "coordinates": [
          -0.37786385,
          49.174606051
        ]
      },
      "properties": {
        "name": "Allée du Clos de la Prairie / Rue du Pont Créon",
        "context": "Caen, Calvados",
        "citycode": "14118",
        "depcode": "14"
      }
    },
    {
      "type": "Feature",
      "geometry": {
        "type": "Point",
        "coordinates": [
          -0.377786048,
          49.174580901
        ]
      },
      "properties": {
        "name": "Allée du Clos de la Prairie / Rue Saint-Ouen",
        "context": "Caen, Calvados",
        "citycode": "14118",
        "depcode": "14"
      }
    },
    {
      "type": "Feature",
      "geometry": {
        "type": "Point",
        "coordinates": [
          -0.3813882,
          49.208956466
        ]
      },
      "properties": {
        "name": "Allée du Discobole / Rue du Marathon",
        "context": "Caen, Calvados",
        "citycode": "14118",
        "depcode": "14"
      }
    },
    {
      "type": "Feature",
      "geometry": {
        "type": "Point",
        "coordinates": [
          -0.384477104,
          49.176166541
        ]
      },
      "properties": {
        "name": "Allée du Nice Caennais / Rue Caponière",
        "context": "Caen, Calvados",
        "citycode": "14118",
        "depcode": "14"
      }
    },
    {
      "type": "Feature",
      "geometry": {
        "type": "Point",
        "coordinates": [
          -0.385895746,
          49.178129193
        ]
      },
      "properties": {
        "name": "Allée du Nice Caennais / Rue de la Haie Vigné",
        "context": "Caen, Calvados",
        "citycode": "14118",
        "depcode": "14"
      }
    },
    {
      "type": "Feature",
      "geometry": {
        "type": "Point",
        "coordinates": [
          -0.385908214,
          49.17813989
        ]
      },
      "properties": {
        "name": "Allée du Nice Caennais / Rue Ledoux",
        "context": "Caen, Calvados",
        "citycode": "14118",
        "depcode": "14"
      }
    },
    {
      "type": "Feature",
      "geometry": {
        "type": "Point",
        "coordinates": [
          -0.391480157,
          49.171680958
        ]
      },
      "properties": {
        "name": "Allée du Prieuré / Rue Constant Forget",
        "context": "Caen, Calvados",
        "citycode": "14118",
        "depcode": "14"
      }
    },
    {
      "type": "Feature",
      "geometry": {
        "type": "Point",
        "coordinates": [
          -0.346012839,
          49.173801561
        ]
      },
      "properties": {
        "name": "Allée du Rocher / Rue Belvédère",
        "context": "Caen, Calvados",
        "citycode": "14118",
        "depcode": "14"
      }
    },
    {
      "type": "Feature",
      "geometry": {
        "type": "Point",
        "coordinates": [
          -0.346556727,
          49.174630906
        ]
      },
      "properties": {
        "name": "Allée du Rocher / Rue Grentheville",
        "context": "Caen, Calvados",
        "citycode": "14118",
        "depcode": "14"
      }
    },
    {
      "type": "Feature",
      "geometry": {
        "type": "Point",
        "coordinates": [
          -0.394927345,
          49.193486072
        ]
      },
      "properties": {
        "name": "Allée du Rossignol / Allée de l'Alouette",
        "context": "Caen, Calvados",
        "citycode": "14118",
        "depcode": "14"
      }
    },
    {
      "type": "Feature",
      "geometry": {
        "type": "Point",
        "coordinates": [
          -0.395923926,
          49.193131222
        ]
      },
      "properties": {
        "name": "Allée du Rossignol / Rue du Bouvreuil",
        "context": "Caen, Calvados",
        "citycode": "14118",
        "depcode": "14"
      }
    },
    {
      "type": "Feature",
      "geometry": {
        "type": "Point",
        "coordinates": [
          -0.394437132,
          49.193672482
        ]
      },
      "properties": {
        "name": "Allée du Rossignol / Rue du Chemin Vert",
        "context": "Caen, Calvados",
        "citycode": "14118",
        "depcode": "14"
      }
    },
    {
      "type": "Feature",
      "geometry": {
        "type": "Point",
        "coordinates": [
          -0.394832694,
          49.194095997
        ]
      },
      "properties": {
        "name": "Allée du Rouge Gorge / Rue du Chemin Vert",
        "context": "Caen, Calvados",
        "citycode": "14118",
        "depcode": "14"
      }
    },
    {
      "type": "Feature",
      "geometry": {
        "type": "Point",
        "coordinates": [
          -0.353544552,
          49.187857757
        ]
      },
      "properties": {
        "name": "Allée du Vieux Clos Herbert / Avenue Georges Clemenceau",
        "context": "Caen, Calvados",
        "citycode": "14118",
        "depcode": "14"
      }
    },
    {
      "type": "Feature",
      "geometry": {
        "type": "Point",
        "coordinates": [
          -0.361898568,
          49.169415999
        ]
      },
      "properties": {
        "name": "Allée Ernest Blot / Rue Auguste Lechesne",
        "context": "Caen, Calvados",
        "citycode": "14118",
        "depcode": "14"
      }
    },
    {
      "type": "Feature",
      "geometry": {
        "type": "Point",
        "coordinates": [
          -0.363106918,
          49.169630959
        ]
      },
      "properties": {
        "name": "Allée Ernest Blot / Rue Ernest Blot",
        "context": "Caen, Calvados",
        "citycode": "14118",
        "depcode": "14"
      }
    },
    {
      "type": "Feature",
      "geometry": {
        "type": "Point",
        "coordinates": [
          -0.367697604,
          49.179188631
        ]
      },
      "properties": {
        "name": "Allée Geneviève-Prieur / Avenue de l'Hippodrome",
        "context": "Caen, Calvados",
        "citycode": "14118",
        "depcode": "14"
      }
    },
    {
      "type": "Feature",
      "geometry": {
        "type": "Point",
        "coordinates": [
          -0.369952274,
          49.179822791
        ]
      },
      "properties": {
        "name": "Allée Geneviève-Prieur / Promenade du Fort",
        "context": "Caen, Calvados",
        "citycode": "14118",
        "depcode": "14"
      }
    },
    {
      "type": "Feature",
      "geometry": {
        "type": "Point",
        "coordinates": [
          -0.387317969,
          49.175201669
        ]
      },
      "properties": {
        "name": "Allée Henri Pigis / Rue Caponière",
        "context": "Caen, Calvados",
        "citycode": "14118",
        "depcode": "14"
      }
    },
    {
      "type": "Feature",
      "geometry": {
        "type": "Point",
        "coordinates": [
          -0.388216126,
          49.175594249
        ]
      },
      "properties": {
        "name": "Allée Henri Pigis / Rue du Parc des Sports",
        "context": "Caen, Calvados",
        "citycode": "14118",
        "depcode": "14"
      }
    },
    {
      "type": "Feature",
      "geometry": {
        "type": "Point",
        "coordinates": [
          -0.334035383,
          49.167315044
        ]
      },
      "properties": {
        "name": "Allée Lapérouse / Chemin aux Bœufs",
        "context": "Caen, Calvados",
        "citycode": "14118",
        "depcode": "14"
      }
    },
    {
      "type": "Feature",
      "geometry": {
        "type": "Point",
        "coordinates": [
          -0.398759304,
          49.18913444
        ]
      },
      "properties": {
        "name": "Allée Marcel Clot / Rue du Chemin des Poissonniers",
        "context": "Caen, Calvados",
        "citycode": "14118",
        "depcode": "14"
      }
    },
    {
      "type": "Feature",
      "geometry": {
        "type": "Point",
        "coordinates": [
          -0.390715631,
          49.174063565
        ]
      },
      "properties": {
        "name": "Allée Mary Pickford / Avenue Henry Chéron",
        "context": "Caen, Calvados",
        "citycode": "14118",
        "depcode": "14"
      }
    },
    {
      "type": "Feature",
      "geometry": {
        "type": "Point",
        "coordinates": [
          -0.336211037,
          49.187012548
        ]
      },
      "properties": {
        "name": "Allée Paul Héroult / Rue Montmorency",
        "context": "Caen, Calvados",
        "citycode": "14118",
        "depcode": "14"
      }
    },
    {
      "type": "Feature",
      "geometry": {
        "type": "Point",
        "coordinates": [
          -0.37837006,
          49.178232042
        ]
      },
      "properties": {
        "name": "Allée Père Jamet / Cour Saint-Charles",
        "context": "Caen, Calvados",
        "citycode": "14118",
        "depcode": "14"
      }
    },
    {
      "type": "Feature",
      "geometry": {
        "type": "Point",
        "coordinates": [
          -0.353308584,
          49.192870715
        ]
      },
      "properties": {
        "name": "Allée Père Julien Gouriou / Rue d'Hérouville",
        "context": "Caen, Calvados",
        "citycode": "14118",
        "depcode": "14"
      }
    },
    {
      "type": "Feature",
      "geometry": {
        "type": "Point",
        "coordinates": [
          -0.352847605,
          49.191356874
        ]
      },
      "properties": {
        "name": "Allée Père Julien Gouriou / Rue du Clos Beaumois",
        "context": "Caen, Calvados",
        "citycode": "14118",
        "depcode": "14"
      }
    },
    {
      "type": "Feature",
      "geometry": {
        "type": "Point",
        "coordinates": [
          -0.383591973,
          49.200066061
        ]
      },
      "properties": {
        "name": "Allée Philippe Lieury-Level / Allée Philippe Livry-Level",
        "context": "Caen, Calvados",
        "citycode": "14118",
        "depcode": "14"
      }
    },
    {
      "type": "Feature",
      "geometry": {
        "type": "Point",
        "coordinates": [
          -0.383793224,
          49.199625425
        ]
      },
      "properties": {
        "name": "Allée Philippe Lieury-Level / Rue d'Alexandria",
        "context": "Caen, Calvados",
        "citycode": "14118",
        "depcode": "14"
      }
    },
    {
      "type": "Feature",
      "geometry": {
        "type": "Point",
        "coordinates": [
          -0.340733903,
          49.156569531
        ]
      },
      "properties": {
        "name": "Allée René Dumont / Boulevard de la Charité",
        "context": "Caen, Calvados",
        "citycode": "14118",
        "depcode": "14"
      }
    },
    {
      "type": "Feature",
      "geometry": {
        "type": "Point",
        "coordinates": [
          -0.346688157,
          49.168060207
        ]
      },
      "properties": {
        "name": "Avenue Albert Premier / Avenue du 43e Régiment d'Artillerie",
        "context": "Caen, Calvados",
        "citycode": "14118",
        "depcode": "14"
      }
    },
    {
      "type": "Feature",
      "geometry": {
        "type": "Point",
        "coordinates": [
          -0.346684797,
          49.168068971
        ]
      },
      "properties": {
        "name": "Avenue Albert Premier / Avenue du Capitaine Georges Guynemer",
        "context": "Caen, Calvados",
        "citycode": "14118",
        "depcode": "14"
      }
    },
    {
      "type": "Feature",
      "geometry": {
        "type": "Point",
        "coordinates": [
          -0.347676523,
          49.169996877
        ]
      },
      "properties": {
        "name": "Avenue Albert Premier / Rue des Bons Enfants",
        "context": "Caen, Calvados",
        "citycode": "14118",
        "depcode": "14"
      }
    },
    {
      "type": "Feature",
      "geometry": {
        "type": "Point",
        "coordinates": [
          -0.371029722,
          49.175079135
        ]
      },
      "properties": {
        "name": "Avenue Albert Sorel / Boulevard Yves Guillou",
        "context": "Caen, Calvados",
        "citycode": "14118",
        "depcode": "14"
      }
    },
    {
      "type": "Feature",
      "geometry": {
        "type": "Point",
        "coordinates": [
          -0.370919496,
          49.179901205
        ]
      },
      "properties": {
        "name": "Avenue Albert Sorel / Place Louis Guillouard",
        "context": "Caen, Calvados",
        "citycode": "14118",
        "depcode": "14"
      }
    },
    {
      "type": "Feature",
      "geometry": {
        "type": "Point",
        "coordinates": [
          -0.370900887,
          49.179836258
        ]
      },
      "properties": {
        "name": "Avenue Albert Sorel / Promenade du Fort",
        "context": "Caen, Calvados",
        "citycode": "14118",
        "depcode": "14"
      }
    },
    {
      "type": "Feature",
      "geometry": {
        "type": "Point",
        "coordinates": [
          -0.370807208,
          49.178940664
        ]
      },
      "properties": {
        "name": "Avenue Albert Sorel / Résidence les Jardins d'Hélitas",
        "context": "Caen, Calvados",
        "citycode": "14118",
        "depcode": "14"
      }
    },
    {
      "type": "Feature",
      "geometry": {
        "type": "Point",
        "coordinates": [
          -0.371120297,
          49.179880568
        ]
      },
      "properties": {
        "name": "Avenue Albert Sorel / Rue du Carel",
        "context": "Caen, Calvados",
        "citycode": "14118",
        "depcode": "14"
      }
    },
    {
      "type": "Feature",
      "geometry": {
        "type": "Point",
        "coordinates": [
          -0.386174507,
          49.195523865
        ]
      },
      "properties": {
        "name": "Avenue Amiral Mountbatten / Périphérique Nord N814",
        "context": "Caen, Calvados",
        "citycode": "14118",
        "depcode": "14"
      }
    },
    {
      "type": "Feature",
      "geometry": {
        "type": "Point",
        "coordinates": [
          -0.39910659,
          49.17131522
        ]
      },
      "properties": {
        "name": "Avenue Charlemagne / Avenue Henry Chéron",
        "context": "Caen, Calvados",
        "citycode": "14118",
        "depcode": "14"
      }
    },
    {
      "type": "Feature",
      "geometry": {
        "type": "Point",
        "coordinates": [
          -0.401017349,
          49.175425779
        ]
      },
      "properties": {
        "name": "Avenue Charlemagne / Place Venoise",
        "context": "Caen, Calvados",
        "citycode": "14118",
        "depcode": "14"
      }
    },
    {
      "type": "Feature",
      "geometry": {
        "type": "Point",
        "coordinates": [
          -0.399384454,
          49.171994902
        ]
      },
      "properties": {
        "name": "Avenue Charlemagne / Rue de Cheux",
        "context": "Caen, Calvados",
        "citycode": "14118",
        "depcode": "14"
      }
    },
    {
      "type": "Feature",
      "geometry": {
        "type": "Point",
        "coordinates": [
          -0.402137296,
          49.177040364
        ]
      },
      "properties": {
        "name": "Avenue Charlemagne / Rue des Trouvères",
        "context": "Caen, Calvados",
        "citycode": "14118",
        "depcode": "14"
      }
    },
    {
      "type": "Feature",
      "geometry": {
        "type": "Point",
        "coordinates": [
          -0.40110487,
          49.18110449
        ]
      },
      "properties": {
        "name": "Avenue Charlemagne / Rue du Maréchal Gallieni",
        "context": "Caen, Calvados",
        "citycode": "14118",
        "depcode": "14"
      }
    },
    {
      "type": "Feature",
      "geometry": {
        "type": "Point",
        "coordinates": [
          -0.399511092,
          49.173139613
        ]
      },
      "properties": {
        "name": "Avenue Charlemagne / Rue Lucien Nelle",
        "context": "Caen, Calvados",
        "citycode": "14118",
        "depcode": "14"
      }
    },
    {
      "type": "Feature",
      "geometry": {
        "type": "Point",
        "coordinates": [
          -0.400635532,
          49.174875817
        ]
      },
      "properties": {
        "name": "Avenue Charlemagne / Rue Wace",
        "context": "Caen, Calvados",
        "citycode": "14118",
        "depcode": "14"
      }
    },
    {
      "type": "Feature",
      "geometry": {
        "type": "Point",
        "coordinates": [
          -0.335240036,
          49.170029926
        ]
      },
      "properties": {
        "name": "Avenue Charlotte Corday / Rue de la Marne",
        "context": "Caen, Calvados",
        "citycode": "14118",
        "depcode": "14"
      }
    },
    {
      "type": "Feature",
      "geometry": {
        "type": "Point",
        "coordinates": [
          -0.336829076,
          49.170400611
        ]
      },
      "properties": {
        "name": "Avenue Charlotte Corday / Rue de la Seine",
        "context": "Caen, Calvados",
        "citycode": "14118",
        "depcode": "14"
      }
    },
    {
      "type": "Feature",
      "geometry": {
        "type": "Point",
        "coordinates": [
          -0.331871096,
          49.169227107
        ]
      },
      "properties": {
        "name": "Avenue Charlotte Corday / Rue des Mésanges",
        "context": "Caen, Calvados",
        "citycode": "14118",
        "depcode": "14"
      }
    },
    {
      "type": "Feature",
      "geometry": {
        "type": "Point",
        "coordinates": [
          -0.355787529,
          49.188821439
        ]
      },
      "properties": {
        "name": "Avenue Croix Guérin / Résidence St Gilles et St Père",
        "context": "Caen, Calvados",
        "citycode": "14118",
        "depcode": "14"
      }
    },
    {
      "type": "Feature",
      "geometry": {
        "type": "Point",
        "coordinates": [
          -0.357192116,
          49.191108315
        ]
      },
      "properties": {
        "name": "Avenue Croix Guérin / Rue d'Hérouville",
        "context": "Caen, Calvados",
        "citycode": "14118",
        "depcode": "14"
      }
    },
    {
      "type": "Feature",
      "geometry": {
        "type": "Point",
        "coordinates": [
          -0.355808158,
          49.187919376
        ]
      },
      "properties": {
        "name": "Avenue Croix Guérin / Rue de la Pigacière",
        "context": "Caen, Calvados",
        "citycode": "14118",
        "depcode": "14"
      }
    },
    {
      "type": "Feature",
      "geometry": {
        "type": "Point",
        "coordinates": [
          -0.357204206,
          49.191111798
        ]
      },
      "properties": {
        "name": "Avenue Croix Guérin / Rue de Lebisey",
        "context": "Caen, Calvados",
        "citycode": "14118",
        "depcode": "14"
      }
    },
    {
      "type": "Feature",
      "geometry": {
        "type": "Point",
        "coordinates": [
          -0.355695381,
          49.187851432
        ]
      },
      "properties": {
        "name": "Avenue Croix Guérin / Rue des Cordes",
        "context": "Caen, Calvados",
        "citycode": "14118",
        "depcode": "14"
      }
    },
    {
      "type": "Feature",
      "geometry": {
        "type": "Point",
        "coordinates": [
          -0.360606619,
          49.190916274
        ]
      },
      "properties": {
        "name": "Avenue d'Edimbourg / Avenue de Lausanne",
        "context": "Caen, Calvados",
        "citycode": "14118",
        "depcode": "14"
      }
    },
    {
      "type": "Feature",
      "geometry": {
        "type": "Point",
        "coordinates": [
          -0.359539009,
          49.191157455
        ]
      },
      "properties": {
        "name": "Avenue d'Edimbourg / Rue de la Délivrande",
        "context": "Caen, Calvados",
        "citycode": "14118",
        "depcode": "14"
      }
    },
    {
      "type": "Feature",
      "geometry": {
        "type": "Point",
        "coordinates": [
          -0.362561709,
          49.189945497
        ]
      },
      "properties": {
        "name": "Avenue d'Edimbourg / Rue Laumonnier",
        "context": "Caen, Calvados",
        "citycode": "14118",
        "depcode": "14"
      }
    },
    {
      "type": "Feature",
      "geometry": {
        "type": "Point",
        "coordinates": [
          -0.368383976,
          49.185393798
        ]
      },
      "properties": {
        "name": "Avenue de Bagatelle / Rue des Fossés Saint-Julien",
        "context": "Caen, Calvados",
        "citycode": "14118",
        "depcode": "14"
      }
    },
    {
      "type": "Feature",
      "geometry": {
        "type": "Point",
        "coordinates": [
          -0.369396917,
          49.185947404
        ]
      },
      "properties": {
        "name": "Avenue de Bagatelle / Rue du Docteur Rayer",
        "context": "Caen, Calvados",
        "citycode": "14118",
        "depcode": "14"
      }
    },
    {
      "type": "Feature",
      "geometry": {
        "type": "Point",
        "coordinates": [
          -0.364074418,
          49.196242069
        ]
      },
      "properties": {
        "name": "Avenue de Bruxelles / Avenue du Professeur Horatio Smith",
        "context": "Caen, Calvados",
        "citycode": "14118",
        "depcode": "14"
      }
    },
    {
      "type": "Feature",
      "geometry": {
        "type": "Point",
        "coordinates": [
          -0.360976498,
          49.196270315
        ]
      },
      "properties": {
        "name": "Avenue de Bruxelles / Rue Alexandre Bigot",
        "context": "Caen, Calvados",
        "citycode": "14118",
        "depcode": "14"
      }
    },
    {
      "type": "Feature",
      "geometry": {
        "type": "Point",
        "coordinates": [
          -0.361772959,
          49.196264419
        ]
      },
      "properties": {
        "name": "Avenue de Bruxelles / Rue Auguste Blanc",
        "context": "Caen, Calvados",
        "citycode": "14118",
        "depcode": "14"
      }
    },
    {
      "type": "Feature",
      "geometry": {
        "type": "Point",
        "coordinates": [
          -0.360057275,
          49.196211676
        ]
      },
      "properties": {
        "name": "Avenue de Bruxelles / Rue de la Délivrande",
        "context": "Caen, Calvados",
        "citycode": "14118",
        "depcode": "14"
      }
    },
    {
      "type": "Feature",
      "geometry": {
        "type": "Point",
        "coordinates": [
          -0.367884745,
          49.195894677
        ]
      },
      "properties": {
        "name": "Avenue de Bruxelles / Rue des Sablons",
        "context": "Caen, Calvados",
        "citycode": "14118",
        "depcode": "14"
      }
    },
    {
      "type": "Feature",
      "geometry": {
        "type": "Point",
        "coordinates": [
          -0.367885158,
          49.195912648
        ]
      },
      "properties": {
        "name": "Avenue de Bruxelles / Rue des Tilleuls",
        "context": "Caen, Calvados",
        "citycode": "14118",
        "depcode": "14"
      }
    },
    {
      "type": "Feature",
      "geometry": {
        "type": "Point",
        "coordinates": [
          -0.360137426,
          49.196200375
        ]
      },
      "properties": {
        "name": "Avenue de Bruxelles / Rue du Moulin au Roy",
        "context": "Caen, Calvados",
        "citycode": "14118",
        "depcode": "14"
      }
    },
    {
      "type": "Feature",
      "geometry": {
        "type": "Point",
        "coordinates": [
          -0.36794466,
          49.195968267
        ]
      },
      "properties": {
        "name": "Avenue de Bruxelles / Rue du Père Sanson",
        "context": "Caen, Calvados",
        "citycode": "14118",
        "depcode": "14"
      }
    },
    {
      "type": "Feature",
      "geometry": {
        "type": "Point",
        "coordinates": [
          -0.367048831,
          49.195920169
        ]
      },
      "properties": {
        "name": "Avenue de Bruxelles / Rue Lieutenant Jean Formey de Saint-Louvent",
        "context": "Caen, Calvados",
        "citycode": "14118",
        "depcode": "14"
      }
    },
    {
      "type": "Feature",
      "geometry": {
        "type": "Point",
        "coordinates": [
          -0.376666942,
          49.20609047
        ]
      },
      "properties": {
        "name": "Avenue de Courseulles / Avenue du Maréchal de Lattre de Tassigny",
        "context": "Caen, Calvados",
        "citycode": "14118",
        "depcode": "14"
      }
    },
    {
      "type": "Feature",
      "geometry": {
        "type": "Point",
        "coordinates": [
          -0.376965328,
          49.208608864
        ]
      },
      "properties": {
        "name": "Avenue de Courseulles D79 / Boulevard du Maréchal Juin D401",
        "context": "Caen, Calvados",
        "citycode": "14118",
        "depcode": "14"
      }
    },
    {
      "type": "Feature",
      "geometry": {
        "type": "Point",
        "coordinates": [
          -0.373762314,
          49.200231548
        ]
      },
      "properties": {
        "name": "Avenue de Courseulles / Boulevard Jean Moulin",
        "context": "Caen, Calvados",
        "citycode": "14118",
        "depcode": "14"
      }
    },
    {
      "type": "Feature",
      "geometry": {
        "type": "Point",
        "coordinates": [
          -0.371166449,
          49.195459946
        ]
      },
      "properties": {
        "name": "Avenue de Courseulles / Chemin du Val",
        "context": "Caen, Calvados",
        "citycode": "14118",
        "depcode": "14"
      }
    },
    {
      "type": "Feature",
      "geometry": {
        "type": "Point",
        "coordinates": [
          -0.374866636,
          49.202014826
        ]
      },
      "properties": {
        "name": "Avenue de Courseulles / Esplanade Brillaud de Laujardière",
        "context": "Caen, Calvados",
        "citycode": "14118",
        "depcode": "14"
      }
    },
    {
      "type": "Feature",
      "geometry": {
        "type": "Point",
        "coordinates": [
          -0.375657472,
          49.204940657
        ]
      },
      "properties": {
        "name": "Avenue de Courseulles / Passerelle de l'Octroi",
        "context": "Caen, Calvados",
        "citycode": "14118",
        "depcode": "14"
      }
    },
    {
      "type": "Feature",
      "geometry": {
        "type": "Point",
        "coordinates": [
          -0.370607237,
          49.189378382
        ]
      },
      "properties": {
        "name": "Avenue de Courseulles / Place Blot",
        "context": "Caen, Calvados",
        "citycode": "14118",
        "depcode": "14"
      }
    },
    {
      "type": "Feature",
      "geometry": {
        "type": "Point",
        "coordinates": [
          -0.376948052,
          49.208680026
        ]
      },
      "properties": {
        "name": "Avenue de Courseulles D79 / Rue de Mâlon D79",
        "context": "Caen, Calvados",
        "citycode": "14118",
        "depcode": "14"
      }
    },
    {
      "type": "Feature",
      "geometry": {
        "type": "Point",
        "coordinates": [
          -0.369854885,
          49.190788073
        ]
      },
      "properties": {
        "name": "Avenue de Courseulles / Rue Gaillarde",
        "context": "Caen, Calvados",
        "citycode": "14118",
        "depcode": "14"
      }
    },
    {
      "type": "Feature",
      "geometry": {
        "type": "Point",
        "coordinates": [
          -0.369897838,
          49.192291399
        ]
      },
      "properties": {
        "name": "Avenue de Courseulles / Rue Malfilâtre",
        "context": "Caen, Calvados",
        "citycode": "14118",
        "depcode": "14"
      }
    },
    {
      "type": "Feature",
      "geometry": {
        "type": "Point",
        "coordinates": [
          -0.375248885,
          49.191855074
        ]
      },
      "properties": {
        "name": "Avenue de Creully / Boulevard Jean Moulin",
        "context": "Caen, Calvados",
        "citycode": "14118",
        "depcode": "14"
      }
    },
    {
      "type": "Feature",
      "geometry": {
        "type": "Point",
        "coordinates": [
          -0.375335197,
          49.191750655
        ]
      },
      "properties": {
        "name": "Avenue de Creully / Boulevard Richemond",
        "context": "Caen, Calvados",
        "citycode": "14118",
        "depcode": "14"
      }
    },
    {
      "type": "Feature",
      "geometry": {
        "type": "Point",
        "coordinates": [
          -0.37072765,
          49.1894421
        ]
      },
      "properties": {
        "name": "Avenue de Creully / Place Blot",
        "context": "Caen, Calvados",
        "citycode": "14118",
        "depcode": "14"
      }
    },
    {
      "type": "Feature",
      "geometry": {
        "type": "Point",
        "coordinates": [
          -0.370772419,
          49.189478755
        ]
      },
      "properties": {
        "name": "Avenue de Creully / Rue des Jardins",
        "context": "Caen, Calvados",
        "citycode": "14118",
        "depcode": "14"
      }
    },
    {
      "type": "Feature",
      "geometry": {
        "type": "Point",
        "coordinates": [
          -0.375103584,
          49.191635013
        ]
      },
      "properties": {
        "name": "Avenue de Creully / Rue des Rosiers",
        "context": "Caen, Calvados",
        "citycode": "14118",
        "depcode": "14"
      }
    },
    {
      "type": "Feature",
      "geometry": {
        "type": "Point",
        "coordinates": [
          -0.372417316,
          49.19023133
        ]
      },
      "properties": {
        "name": "Avenue de Creully / Venèlle du Jardin des Plantes",
        "context": "Caen, Calvados",
        "citycode": "14118",
        "depcode": "14"
      }
    },
    {
      "type": "Feature",
      "geometry": {
        "type": "Point",
        "coordinates": [
          -0.367733795,
          49.180148026
        ]
      },
      "properties": {
        "name": "Avenue de l'Hippodrome / Boulevard Bertrand",
        "context": "Caen, Calvados",
        "citycode": "14118",
        "depcode": "14"
      }
    },
    {
      "type": "Feature",
      "geometry": {
        "type": "Point",
        "coordinates": [
          -0.367670943,
          49.179748381
        ]
      },
      "properties": {
        "name": "Avenue de l'Hippodrome / Promenade du Fort",
        "context": "Caen, Calvados",
        "citycode": "14118",
        "depcode": "14"
      }
    },
    {
      "type": "Feature",
      "geometry": {
        "type": "Point",
        "coordinates": [
          -0.343014252,
          49.183542104
        ]
      },
      "properties": {
        "name": "Avenue de l'Orne / Quai de Normandie",
        "context": "Caen, Calvados",
        "citycode": "14118",
        "depcode": "14"
      }
    },
    {
      "type": "Feature",
      "geometry": {
        "type": "Point",
        "coordinates": [
          -0.341315715,
          49.156367077
        ]
      },
      "properties": {
        "name": "Avenue de la Concorde / Boulevard de la Charité",
        "context": "Caen, Calvados",
        "citycode": "14118",
        "depcode": "14"
      }
    },
    {
      "type": "Feature",
      "geometry": {
        "type": "Point",
        "coordinates": [
          -0.343575527,
          49.160140971
        ]
      },
      "properties": {
        "name": "Avenue de la Concorde / Place de la Liberté",
        "context": "Caen, Calvados",
        "citycode": "14118",
        "depcode": "14"
      }
    },
    {
      "type": "Feature",
      "geometry": {
        "type": "Point",
        "coordinates": [
          -0.343110385,
          49.159076502
        ]
      },
      "properties": {
        "name": "Avenue de la Concorde / Rue Albert de Mun",
        "context": "Caen, Calvados",
        "citycode": "14118",
        "depcode": "14"
      }
    },
    {
      "type": "Feature",
      "geometry": {
        "type": "Point",
        "coordinates": [
          -0.342150794,
          49.157838067
        ]
      },
      "properties": {
        "name": "Avenue de la Concorde / Rue de Genève",
        "context": "Caen, Calvados",
        "citycode": "14118",
        "depcode": "14"
      }
    },
    {
      "type": "Feature",
      "geometry": {
        "type": "Point",
        "coordinates": [
          -0.344020706,
          49.160221781
        ]
      },
      "properties": {
        "name": "Avenue de la Concorde / Rue de la Bienfaisance",
        "context": "Caen, Calvados",
        "citycode": "14118",
        "depcode": "14"
      }
    },
    {
      "type": "Feature",
      "geometry": {
        "type": "Point",
        "coordinates": [
          -0.342834079,
          49.159008534
        ]
      },
      "properties": {
        "name": "Avenue de la Concorde / Rue Henry Dunant",
        "context": "Caen, Calvados",
        "citycode": "14118",
        "depcode": "14"
      }
    },
    {
      "type": "Feature",
      "geometry": {
        "type": "Point",
        "coordinates": [
          -0.34338634,
          49.159581315
        ]
      },
      "properties": {
        "name": "Avenue de la Concorde / Rue Jean Jaurès",
        "context": "Caen, Calvados",
        "citycode": "14118",
        "depcode": "14"
      }
    },
    {
      "type": "Feature",
      "geometry": {
        "type": "Point",
        "coordinates": [
          -0.342433769,
          49.157862154
        ]
      },
      "properties": {
        "name": "Avenue de la Concorde / Rue Jean-Jacques Rousseau",
        "context": "Caen, Calvados",
        "citycode": "14118",
        "depcode": "14"
      }
    },
    {
      "type": "Feature",
      "geometry": {
        "type": "Point",
        "coordinates": [
          -0.341749856,
          49.156615325
        ]
      },
      "properties": {
        "name": "Avenue de la Concorde / Rue Louis Lachenal",
        "context": "Caen, Calvados",
        "citycode": "14118",
        "depcode": "14"
      }
    },
    {
      "type": "Feature",
      "geometry": {
        "type": "Point",
        "coordinates": [
          -0.360701656,
          49.205892871
        ]
      },
      "properties": {
        "name": "Avenue de la Côte de Nacre / Avenue du Professeur André Maurice",
        "context": "Caen, Calvados",
        "citycode": "14118",
        "depcode": "14"
      }
    },
    {
      "type": "Feature",
      "geometry": {
        "type": "Point",
        "coordinates": [
          -0.360263122,
          49.198491268
        ]
      },
      "properties": {
        "name": "Avenue de la Côte de Nacre / Avenue Nicolas Copernic",
        "context": "Caen, Calvados",
        "citycode": "14118",
        "depcode": "14"
      }
    },
    {
      "type": "Feature",
      "geometry": {
        "type": "Point",
        "coordinates": [
          -0.363387348,
          49.210952536
        ]
      },
      "properties": {
        "name": "Avenue de la Côte de Nacre D7 / Boulevard Maréchal Juin D401",
        "context": "Caen, Calvados",
        "citycode": "14118",
        "depcode": "14"
      }
    },
    {
      "type": "Feature",
      "geometry": {
        "type": "Point",
        "coordinates": [
          -0.360388364,
          49.200342744
        ]
      },
      "properties": {
        "name": "Avenue de la Côte de Nacre / Rue de la Délivrande",
        "context": "Caen, Calvados",
        "citycode": "14118",
        "depcode": "14"
      }
    },
    {
      "type": "Feature",
      "geometry": {
        "type": "Point",
        "coordinates": [
          -0.363470698,
          49.2109462
        ]
      },
      "properties": {
        "name": "Avenue de la Côte de Nacre / Rue Jacques Brel D7",
        "context": "Caen, Calvados",
        "citycode": "14118",
        "depcode": "14"
      }
    },
    {
      "type": "Feature",
      "geometry": {
        "type": "Point",
        "coordinates": [
          -0.360395372,
          49.185484152
        ]
      },
      "properties": {
        "name": "Avenue de la Libération / Rue du Chanoine Ruel",
        "context": "Caen, Calvados",
        "citycode": "14118",
        "depcode": "14"
      }
    },
    {
      "type": "Feature",
      "geometry": {
        "type": "Point",
        "coordinates": [
          -0.36008078,
          49.186185536
        ]
      },
      "properties": {
        "name": "Avenue de la Libération / Rue du Vaugueux",
        "context": "Caen, Calvados",
        "citycode": "14118",
        "depcode": "14"
      }
    },
    {
      "type": "Feature",
      "geometry": {
        "type": "Point",
        "coordinates": [
          -0.358670992,
          49.18721066
        ]
      },
      "properties": {
        "name": "Avenue de la Libération / Rue Leroy",
        "context": "Caen, Calvados",
        "citycode": "14118",
        "depcode": "14"
      }
    },
    {
      "type": "Feature",
      "geometry": {
        "type": "Point",
        "coordinates": [
          -0.385417322,
          49.190357285
        ]
      },
      "properties": {
        "name": "Avenue de la Première Armée Française / Rue de Cussy",
        "context": "Caen, Calvados",
        "citycode": "14118",
        "depcode": "14"
      }
    },
    {
      "type": "Feature",
      "geometry": {
        "type": "Point",
        "coordinates": [
          -0.38422285,
          49.189458218
        ]
      },
      "properties": {
        "name": "Avenue de la Première Armée Française / Rue de Secqueville",
        "context": "Caen, Calvados",
        "citycode": "14118",
        "depcode": "14"
      }
    },
    {
      "type": "Feature",
      "geometry": {
        "type": "Point",
        "coordinates": [
          -0.382436198,
          49.188176058
        ]
      },
      "properties": {
        "name": "Avenue de la Première Armée Française / Square Rhin et Danube",
        "context": "Caen, Calvados",
        "citycode": "14118",
        "depcode": "14"
      }
    },
    {
      "type": "Feature",
      "geometry": {
        "type": "Point",
        "coordinates": [
          -0.360506754,
          49.189859359
        ]
      },
      "properties": {
        "name": "Avenue de Lausanne / Rue Laumonnier",
        "context": "Caen, Calvados",
        "citycode": "14118",
        "depcode": "14"
      }
    },
    {
      "type": "Feature",
      "geometry": {
        "type": "Point",
        "coordinates": [
          -0.337607073,
          49.174743539
        ]
      },
      "properties": {
        "name": "Avenue de Paris D613 / Avenue de Rouen D675",
        "context": "Caen, Calvados",
        "citycode": "14118",
        "depcode": "14"
      }
    },
    {
      "type": "Feature",
      "geometry": {
        "type": "Point",
        "coordinates": [
          -0.332407389,
          49.172874153
        ]
      },
      "properties": {
        "name": "Avenue de Paris D613 / Boulevard Louis Barthou",
        "context": "Caen, Calvados",
        "citycode": "14118",
        "depcode": "14"
      }
    },
    {
      "type": "Feature",
      "geometry": {
        "type": "Point",
        "coordinates": [
          -0.337624303,
          49.174584369
        ]
      },
      "properties": {
        "name": "Avenue de Paris D613 / Place de la Demi Lune",
        "context": "Caen, Calvados",
        "citycode": "14118",
        "depcode": "14"
      }
    },
    {
      "type": "Feature",
      "geometry": {
        "type": "Point",
        "coordinates": [
          -0.336327057,
          49.174148234
        ]
      },
      "properties": {
        "name": "Avenue de Paris D613 / Rue de la Seine",
        "context": "Caen, Calvados",
        "citycode": "14118",
        "depcode": "14"
      }
    },
    {
      "type": "Feature",
      "geometry": {
        "type": "Point",
        "coordinates": [
          -0.337519906,
          49.174718948
        ]
      },
      "properties": {
        "name": "Avenue de Rouen D675 / Avenue de Paris D613",
        "context": "Caen, Calvados",
        "citycode": "14118",
        "depcode": "14"
      }
    },
    {
      "type": "Feature",
      "geometry": {
        "type": "Point",
        "coordinates": [
          -0.332034319,
          49.174139981
        ]
      },
      "properties": {
        "name": "Avenue de Rouen D675 / Impasse du Peintre",
        "context": "Caen, Calvados",
        "citycode": "14118",
        "depcode": "14"
      }
    },
    {
      "type": "Feature",
      "geometry": {
        "type": "Point",
        "coordinates": [
          -0.337589913,
          49.174751006
        ]
      },
      "properties": {
        "name": "Avenue de Rouen D675 / Place de la Demi Lune",
        "context": "Caen, Calvados",
        "citycode": "14118",
        "depcode": "14"
      }
    },
    {
      "type": "Feature",
      "geometry": {
        "type": "Point",
        "coordinates": [
          -0.3618146,
          49.198454799
        ]
      },
      "properties": {
        "name": "Avenue de Thiès / Rue Jules Verne",
        "context": "Caen, Calvados",
        "citycode": "14118",
        "depcode": "14"
      }
    },
    {
      "type": "Feature",
      "geometry": {
        "type": "Point",
        "coordinates": [
          -0.35262342,
          49.183140971
        ]
      },
      "properties": {
        "name": "Avenue de Tourville / Pont de la Fonderie",
        "context": "Caen, Calvados",
        "citycode": "14118",
        "depcode": "14"
      }
    },
    {
      "type": "Feature",
      "geometry": {
        "type": "Point",
        "coordinates": [
          -0.352222601,
          49.183519106
        ]
      },
      "properties": {
        "name": "Avenue de Tourville / Rue Richard Lenoir",
        "context": "Caen, Calvados",
        "citycode": "14118",
        "depcode": "14"
      }
    },
    {
      "type": "Feature",
      "geometry": {
        "type": "Point",
        "coordinates": [
          -0.358454732,
          49.178983642
        ]
      },
      "properties": {
        "name": "Avenue de Verdun / Rue Saint-Louis",
        "context": "Caen, Calvados",
        "citycode": "14118",
        "depcode": "14"
      }
    },
    {
      "type": "Feature",
      "geometry": {
        "type": "Point",
        "coordinates": [
          -0.401726049,
          49.176435567
        ]
      },
      "properties": {
        "name": "Avenue des Chevaliers / Avenue Charlemagne",
        "context": "Caen, Calvados",
        "citycode": "14118",
        "depcode": "14"
      }
    },
    {
      "type": "Feature",
      "geometry": {
        "type": "Point",
        "coordinates": [
          -0.397729177,
          49.177167528
        ]
      },
      "properties": {
        "name": "Avenue des Chevaliers / Rue du Maréchal Gallieni",
        "context": "Caen, Calvados",
        "citycode": "14118",
        "depcode": "14"
      }
    },
    {
      "type": "Feature",
      "geometry": {
        "type": "Point",
        "coordinates": [
          -0.400306927,
          49.176700857
        ]
      },
      "properties": {
        "name": "Avenue des Chevaliers / Rue Wace",
        "context": "Caen, Calvados",
        "citycode": "14118",
        "depcode": "14"
      }
    },
    {
      "type": "Feature",
      "geometry": {
        "type": "Point",
        "coordinates": [
          -0.346687801,
          49.168053528
        ]
      },
      "properties": {
        "name": "Avenue du 43e Régiment d'Artillerie / Avenue du Capitaine Georges Guynemer",
        "context": "Caen, Calvados",
        "citycode": "14118",
        "depcode": "14"
      }
    },
    {
      "type": "Feature",
      "geometry": {
        "type": "Point",
        "coordinates": [
          -0.344649334,
          49.164859241
        ]
      },
      "properties": {
        "name": "Avenue du 43e Régiment d'Artillerie / Boulevard Raymond Poincaré",
        "context": "Caen, Calvados",
        "citycode": "14118",
        "depcode": "14"
      }
    },
    {
      "type": "Feature",
      "geometry": {
        "type": "Point",
        "coordinates": [
          -0.346173566,
          49.167052364
        ]
      },
      "properties": {
        "name": "Avenue du 43e Régiment d'Artillerie / Cours des Compagnons de la Libération",
        "context": "Caen, Calvados",
        "citycode": "14118",
        "depcode": "14"
      }
    },
    {
      "type": "Feature",
      "geometry": {
        "type": "Point",
        "coordinates": [
          -0.344574706,
          49.164772298
        ]
      },
      "properties": {
        "name": "Avenue du 43e Régiment d'Artillerie / Rue Avicenne",
        "context": "Caen, Calvados",
        "citycode": "14118",
        "depcode": "14"
      }
    },
    {
      "type": "Feature",
      "geometry": {
        "type": "Point",
        "coordinates": [
          -0.345879556,
          49.166414326
        ]
      },
      "properties": {
        "name": "Avenue du 43e Régiment d'Artillerie / Rue du Lieutenant Chapron",
        "context": "Caen, Calvados",
        "citycode": "14118",
        "depcode": "14"
      }
    },
    {
      "type": "Feature",
      "geometry": {
        "type": "Point",
        "coordinates": [
          -0.355981645,
          49.180589875
        ]
      },
      "properties": {
        "name": "Avenue du 6 Juin / Place de la Résistance",
        "context": "Caen, Calvados",
        "citycode": "14118",
        "depcode": "14"
      }
    },
    {
      "type": "Feature",
      "geometry": {
        "type": "Point",
        "coordinates": [
          -0.353422797,
          49.178249104
        ]
      },
      "properties": {
        "name": "Avenue du 6 Juin / Quai de Juillet",
        "context": "Caen, Calvados",
        "citycode": "14118",
        "depcode": "14"
      }
    },
    {
      "type": "Feature",
      "geometry": {
        "type": "Point",
        "coordinates": [
          -0.358316857,
          49.182859259
        ]
      },
      "properties": {
        "name": "Avenue du 6 Juin / Rue de Bernières",
        "context": "Caen, Calvados",
        "citycode": "14118",
        "depcode": "14"
      }
    },
    {
      "type": "Feature",
      "geometry": {
        "type": "Point",
        "coordinates": [
          -0.356600051,
          49.181226537
        ]
      },
      "properties": {
        "name": "Avenue du 6 Juin / Rue des Équipes d'Urgence",
        "context": "Caen, Calvados",
        "citycode": "14118",
        "depcode": "14"
      }
    },
    {
      "type": "Feature",
      "geometry": {
        "type": "Point",
        "coordinates": [
          -0.356265443,
          49.180912526
        ]
      },
      "properties": {
        "name": "Avenue du 6 Juin / Rue des Martyrs",
        "context": "Caen, Calvados",
        "citycode": "14118",
        "depcode": "14"
      }
    },
    {
      "type": "Feature",
      "geometry": {
        "type": "Point",
        "coordinates": [
          -0.354174462,
          49.179055207
        ]
      },
      "properties": {
        "name": "Avenue du 6 Juin / Rue Frémentel",
        "context": "Caen, Calvados",
        "citycode": "14118",
        "depcode": "14"
      }
    },
    {
      "type": "Feature",
      "geometry": {
        "type": "Point",
        "coordinates": [
          -0.354276143,
          49.179007839
        ]
      },
      "properties": {
        "name": "Avenue du 6 Juin / Rue Laplace",
        "context": "Caen, Calvados",
        "citycode": "14118",
        "depcode": "14"
      }
    },
    {
      "type": "Feature",
      "geometry": {
        "type": "Point",
        "coordinates": [
          -0.358835672,
          49.183373516
        ]
      },
      "properties": {
        "name": "Avenue du 6 Juin / Rue Neuve Saint-Jean",
        "context": "Caen, Calvados",
        "citycode": "14118",
        "depcode": "14"
      }
    },
    {
      "type": "Feature",
      "geometry": {
        "type": "Point",
        "coordinates": [
          -0.339119967,
          49.191392462
        ]
      },
      "properties": {
        "name": "Avenue du Calvados / Avenue Georges Clemenceau",
        "context": "Caen, Calvados",
        "citycode": "14118",
        "depcode": "14"
      }
    },
    {
      "type": "Feature",
      "geometry": {
        "type": "Point",
        "coordinates": [
          -0.336825996,
          49.188990812
        ]
      },
      "properties": {
        "name": "Avenue du Calvados / Rue de l'Épargne",
        "context": "Caen, Calvados",
        "citycode": "14118",
        "depcode": "14"
      }
    },
    {
      "type": "Feature",
      "geometry": {
        "type": "Point",
        "coordinates": [
          -0.337444753,
          49.189480354
        ]
      },
      "properties": {
        "name": "Avenue du Calvados / Rue de la Prévoyance",
        "context": "Caen, Calvados",
        "citycode": "14118",
        "depcode": "14"
      }
    },
    {
      "type": "Feature",
      "geometry": {
        "type": "Point",
        "coordinates": [
          -0.335279871,
          49.187184281
        ]
      },
      "properties": {
        "name": "Avenue du Calvados / Rue de la Rochelle",
        "context": "Caen, Calvados",
        "citycode": "14118",
        "depcode": "14"
      }
    },
    {
      "type": "Feature",
      "geometry": {
        "type": "Point",
        "coordinates": [
          -0.33528851,
          49.187188077
        ]
      },
      "properties": {
        "name": "Avenue du Calvados / Rue Montmorency",
        "context": "Caen, Calvados",
        "citycode": "14118",
        "depcode": "14"
      }
    },
    {
      "type": "Feature",
      "geometry": {
        "type": "Point",
        "coordinates": [
          -0.335813281,
          49.187793441
        ]
      },
      "properties": {
        "name": "Avenue du Calvados / Rue Tortue",
        "context": "Caen, Calvados",
        "citycode": "14118",
        "depcode": "14"
      }
    },
    {
      "type": "Feature",
      "geometry": {
        "type": "Point",
        "coordinates": [
          -0.371707923,
          49.18547077
        ]
      },
      "properties": {
        "name": "Avenue du Canada / Place du Canada",
        "context": "Caen, Calvados",
        "citycode": "14118",
        "depcode": "14"
      }
    },
    {
      "type": "Feature",
      "geometry": {
        "type": "Point",
        "coordinates": [
          -0.369935405,
          49.184199297
        ]
      },
      "properties": {
        "name": "Avenue du Canada / Place Saint-Martin",
        "context": "Caen, Calvados",
        "citycode": "14118",
        "depcode": "14"
      }
    },
    {
      "type": "Feature",
      "geometry": {
        "type": "Point",
        "coordinates": [
          -0.371638302,
          49.185444137
        ]
      },
      "properties": {
        "name": "Avenue du Canada / Rue du Docteur Rayer",
        "context": "Caen, Calvados",
        "citycode": "14118",
        "depcode": "14"
      }
    },
    {
      "type": "Feature",
      "geometry": {
        "type": "Point",
        "coordinates": [
          -0.350785262,
          49.166658044
        ]
      },
      "properties": {
        "name": "Avenue du Capitaine Georges Guynemer / Rue de Cormelles",
        "context": "Caen, Calvados",
        "citycode": "14118",
        "depcode": "14"
      }
    },
    {
      "type": "Feature",
      "geometry": {
        "type": "Point",
        "coordinates": [
          -0.350974253,
          49.166606856
        ]
      },
      "properties": {
        "name": "Avenue du Capitaine Georges Guynemer / Rue de Falaise",
        "context": "Caen, Calvados",
        "citycode": "14118",
        "depcode": "14"
      }
    },
    {
      "type": "Feature",
      "geometry": {
        "type": "Point",
        "coordinates": [
          -0.347682344,
          49.167743692
        ]
      },
      "properties": {
        "name": "Avenue du Capitaine Georges Guynemer / Rue des Bons Enfants",
        "context": "Caen, Calvados",
        "citycode": "14118",
        "depcode": "14"
      }
    },
    {
      "type": "Feature",
      "geometry": {
        "type": "Point",
        "coordinates": [
          -0.343294186,
          49.169273345
        ]
      },
      "properties": {
        "name": "Avenue du Capitaine Georges Guynemer / Rue Eugénie",
        "context": "Caen, Calvados",
        "citycode": "14118",
        "depcode": "14"
      }
    },
    {
      "type": "Feature",
      "geometry": {
        "type": "Point",
        "coordinates": [
          -0.349171322,
          49.167220986
        ]
      },
      "properties": {
        "name": "Avenue du Capitaine Georges Guynemer / Rue Guillaume Trébutien",
        "context": "Caen, Calvados",
        "citycode": "14118",
        "depcode": "14"
      }
    },
    {
      "type": "Feature",
      "geometry": {
        "type": "Point",
        "coordinates": [
          -0.344171332,
          49.168901905
        ]
      },
      "properties": {
        "name": "Avenue du Capitaine Georges Guynemer / Rue Michel Lasne",
        "context": "Caen, Calvados",
        "citycode": "14118",
        "depcode": "14"
      }
    },
    {
      "type": "Feature",
      "geometry": {
        "type": "Point",
        "coordinates": [
          -0.342157312,
          49.169682871
        ]
      },
      "properties": {
        "name": "Avenue du Capitaine Georges Guynemer / Rue Robert Letellier",
        "context": "Caen, Calvados",
        "citycode": "14118",
        "depcode": "14"
      }
    },
    {
      "type": "Feature",
      "geometry": {
        "type": "Point",
        "coordinates": [
          -0.340991794,
          49.170030456
        ]
      },
      "properties": {
        "name": "Avenue du Capitaine Georges Guynemer / Rue Victor Lépine",
        "context": "Caen, Calvados",
        "citycode": "14118",
        "depcode": "14"
      }
    },
    {
      "type": "Feature",
      "geometry": {
        "type": "Point",
        "coordinates": [
          -0.358058111,
          49.161447017
        ]
      },
      "properties": {
        "name": "Avenue du Docteur Maurice Collin / Avenue Père Charles de Foucauld",
        "context": "Caen, Calvados",
        "citycode": "14118",
        "depcode": "14"
      }
    },
    {
      "type": "Feature",
      "geometry": {
        "type": "Point",
        "coordinates": [
          -0.359081302,
          49.159548947
        ]
      },
      "properties": {
        "name": "Avenue du Docteur Maurice Collin / Rue d'Etavaux",
        "context": "Caen, Calvados",
        "citycode": "14118",
        "depcode": "14"
      }
    },
    {
      "type": "Feature",
      "geometry": {
        "type": "Point",
        "coordinates": [
          -0.358789882,
          49.159981993
        ]
      },
      "properties": {
        "name": "Avenue du Docteur Maurice Collin / Rue de la Pomme d'Or",
        "context": "Caen, Calvados",
        "citycode": "14118",
        "depcode": "14"
      }
    },
    {
      "type": "Feature",
      "geometry": {
        "type": "Point",
        "coordinates": [
          -0.390624028,
          49.19898427
        ]
      },
      "properties": {
        "name": "Avenue du Général Dempsey / Avenue Amiral Mountbatten D126",
        "context": "Caen, Calvados",
        "citycode": "14118",
        "depcode": "14"
      }
    },
    {
      "type": "Feature",
      "geometry": {
        "type": "Point",
        "coordinates": [
          -0.38857953,
          49.200814778
        ]
      },
      "properties": {
        "name": "Avenue du Général Dempsey / Avenue du Maréchal Montgomery",
        "context": "Caen, Calvados",
        "citycode": "14118",
        "depcode": "14"
      }
    },
    {
      "type": "Feature",
      "geometry": {
        "type": "Point",
        "coordinates": [
          -0.350725004,
          49.205548901
        ]
      },
      "properties": {
        "name": "Avenue du Général Harris D60 / Avenue du Général de Gaulle D60",
        "context": "Caen, Calvados",
        "citycode": "14118",
        "depcode": "14"
      }
    },
    {
      "type": "Feature",
      "geometry": {
        "type": "Point",
        "coordinates": [
          -0.385163456,
          49.20318042
        ]
      },
      "properties": {
        "name": "Avenue du Maréchal de Lattre de Tassigny / Allée Isaac Jean Doktor",
        "context": "Caen, Calvados",
        "citycode": "14118",
        "depcode": "14"
      }
    },
    {
      "type": "Feature",
      "geometry": {
        "type": "Point",
        "coordinates": [
          -0.376772926,
          49.206313854
        ]
      },
      "properties": {
        "name": "Avenue du Maréchal de Lattre de Tassigny / Avenue de Courseulles D79",
        "context": "Caen, Calvados",
        "citycode": "14118",
        "depcode": "14"
      }
    },
    {
      "type": "Feature",
      "geometry": {
        "type": "Point",
        "coordinates": [
          -0.387911097,
          49.201219
        ]
      },
      "properties": {
        "name": "Avenue du Maréchal de Lattre de Tassigny / Avenue du Maréchal Montgomery",
        "context": "Caen, Calvados",
        "citycode": "14118",
        "depcode": "14"
      }
    },
    {
      "type": "Feature",
      "geometry": {
        "type": "Point",
        "coordinates": [
          -0.3791869,
          49.2056864
        ]
      },
      "properties": {
        "name": "Avenue du Maréchal de Lattre de Tassigny / Porte de l'Asie",
        "context": "Caen, Calvados",
        "citycode": "14118",
        "depcode": "14"
      }
    },
    {
      "type": "Feature",
      "geometry": {
        "type": "Point",
        "coordinates": [
          -0.387415064,
          49.202111281
        ]
      },
      "properties": {
        "name": "Avenue du Maréchal de Lattre de Tassigny / Rue Colonel Rémy Gilbert Renault",
        "context": "Caen, Calvados",
        "citycode": "14118",
        "depcode": "14"
      }
    },
    {
      "type": "Feature",
      "geometry": {
        "type": "Point",
        "coordinates": [
          -0.382318837,
          49.20459089
        ]
      },
      "properties": {
        "name": "Avenue du Maréchal de Lattre de Tassigny / Rue des Acadiens",
        "context": "Caen, Calvados",
        "citycode": "14118",
        "depcode": "14"
      }
    },
    {
      "type": "Feature",
      "geometry": {
        "type": "Point",
        "coordinates": [
          -0.37826684,
          49.206000322
        ]
      },
      "properties": {
        "name": "Avenue du Maréchal de Lattre de Tassigny / Rue Jacques Prévert",
        "context": "Caen, Calvados",
        "citycode": "14118",
        "depcode": "14"
      }
    },
    {
      "type": "Feature",
      "geometry": {
        "type": "Point",
        "coordinates": [
          -0.384506288,
          49.203622552
        ]
      },
      "properties": {
        "name": "Avenue du Maréchal de Lattre de Tassigny / Rue René Duchez",
        "context": "Caen, Calvados",
        "citycode": "14118",
        "depcode": "14"
      }
    },
    {
      "type": "Feature",
      "geometry": {
        "type": "Point",
        "coordinates": [
          -0.3885096,
          49.200780888
        ]
      },
      "properties": {
        "name": "Avenue du Maréchal Montgomery / Avenue du Général Dempsey",
        "context": "Caen, Calvados",
        "citycode": "14118",
        "depcode": "14"
      }
    },
    {
      "type": "Feature",
      "geometry": {
        "type": "Point",
        "coordinates": [
          -0.391181562,
          49.202766432
        ]
      },
      "properties": {
        "name": "Avenue du Maréchal Montgomery / Rond-Point du Débarquement",
        "context": "Caen, Calvados",
        "citycode": "14118",
        "depcode": "14"
      }
    },
    {
      "type": "Feature",
      "geometry": {
        "type": "Point",
        "coordinates": [
          -0.390171824,
          49.202180923
        ]
      },
      "properties": {
        "name": "Avenue du Maréchal Montgomery / Rue Colonel Rémy Gilbert Renault",
        "context": "Caen, Calvados",
        "citycode": "14118",
        "depcode": "14"
      }
    },
    {
      "type": "Feature",
      "geometry": {
        "type": "Point",
        "coordinates": [
          -0.39009486,
          49.202101548
        ]
      },
      "properties": {
        "name": "Avenue du Maréchal Montgomery / Rue Commodore J. H. Hallet",
        "context": "Caen, Calvados",
        "citycode": "14118",
        "depcode": "14"
      }
    },
    {
      "type": "Feature",
      "geometry": {
        "type": "Point",
        "coordinates": [
          -0.387393941,
          49.200453829
        ]
      },
      "properties": {
        "name": "Avenue du Maréchal Montgomery / Rue de Nashville",
        "context": "Caen, Calvados",
        "citycode": "14118",
        "depcode": "14"
      }
    },
    {
      "type": "Feature",
      "geometry": {
        "type": "Point",
        "coordinates": [
          -0.383138304,
          49.198169321
        ]
      },
      "properties": {
        "name": "Avenue du Maréchal Montgomery / Rue des Roquemonts",
        "context": "Caen, Calvados",
        "citycode": "14118",
        "depcode": "14"
      }
    },
    {
      "type": "Feature",
      "geometry": {
        "type": "Point",
        "coordinates": [
          -0.385041089,
          49.19921515
        ]
      },
      "properties": {
        "name": "Avenue du Maréchal Montgomery / Rue Normandie-Niémen",
        "context": "Caen, Calvados",
        "citycode": "14118",
        "depcode": "14"
      }
    },
    {
      "type": "Feature",
      "geometry": {
        "type": "Point",
        "coordinates": [
          -0.397097295,
          49.169738565
        ]
      },
      "properties": {
        "name": "Avenue du Parc Bellevue / Rue de Bellevue",
        "context": "Caen, Calvados",
        "citycode": "14118",
        "depcode": "14"
      }
    },
    {
      "type": "Feature",
      "geometry": {
        "type": "Point",
        "coordinates": [
          -0.397485563,
          49.19112051
        ]
      },
      "properties": {
        "name": "Avenue du Président Coty / Rue d'Authie",
        "context": "Caen, Calvados",
        "citycode": "14118",
        "depcode": "14"
      }
    },
    {
      "type": "Feature",
      "geometry": {
        "type": "Point",
        "coordinates": [
          -0.39501745,
          49.192020262
        ]
      },
      "properties": {
        "name": "Avenue du Président Coty / Rue du Bouvreuil",
        "context": "Caen, Calvados",
        "citycode": "14118",
        "depcode": "14"
      }
    },
    {
      "type": "Feature",
      "geometry": {
        "type": "Point",
        "coordinates": [
          -0.39347863,
          49.192596375
        ]
      },
      "properties": {
        "name": "Avenue du Président Coty / Rue du Chemin Vert",
        "context": "Caen, Calvados",
        "citycode": "14118",
        "depcode": "14"
      }
    },
    {
      "type": "Feature",
      "geometry": {
        "type": "Point",
        "coordinates": [
          -0.361226908,
          49.205874379
        ]
      },
      "properties": {
        "name": "Avenue du Professeur André Maurice / Avenue de la Côte de Nacre D7",
        "context": "Caen, Calvados",
        "citycode": "14118",
        "depcode": "14"
      }
    },
    {
      "type": "Feature",
      "geometry": {
        "type": "Point",
        "coordinates": [
          -0.359418513,
          49.205997009
        ]
      },
      "properties": {
        "name": "Avenue du Professeur André Maurice / Rue Professeur Joseph Rousselot",
        "context": "Caen, Calvados",
        "citycode": "14118",
        "depcode": "14"
      }
    },
    {
      "type": "Feature",
      "geometry": {
        "type": "Point",
        "coordinates": [
          -0.36409269,
          49.19624206
        ]
      },
      "properties": {
        "name": "Avenue du Professeur Horatio Smith / Avenue de Bruxelles",
        "context": "Caen, Calvados",
        "citycode": "14118",
        "depcode": "14"
      }
    },
    {
      "type": "Feature",
      "geometry": {
        "type": "Point",
        "coordinates": [
          -0.364499594,
          49.199161716
        ]
      },
      "properties": {
        "name": "Avenue du Professeur Horatio Smith / Avenue de Thiès",
        "context": "Caen, Calvados",
        "citycode": "14118",
        "depcode": "14"
      }
    },
    {
      "type": "Feature",
      "geometry": {
        "type": "Point",
        "coordinates": [
          -0.364453008,
          49.200329771
        ]
      },
      "properties": {
        "name": "Avenue du Professeur Horatio Smith / Rue de Buron",
        "context": "Caen, Calvados",
        "citycode": "14118",
        "depcode": "14"
      }
    },
    {
      "type": "Feature",
      "geometry": {
        "type": "Point",
        "coordinates": [
          -0.364469932,
          49.200328217
        ]
      },
      "properties": {
        "name": "Avenue du Professeur Horatio Smith / Rue de Cully",
        "context": "Caen, Calvados",
        "citycode": "14118",
        "depcode": "14"
      }
    },
    {
      "type": "Feature",
      "geometry": {
        "type": "Point",
        "coordinates": [
          -0.3642534,
          49.199282271
        ]
      },
      "properties": {
        "name": "Avenue du Professeur Horatio Smith / Rue de la Défense Passive",
        "context": "Caen, Calvados",
        "citycode": "14118",
        "depcode": "14"
      }
    },
    {
      "type": "Feature",
      "geometry": {
        "type": "Point",
        "coordinates": [
          -0.364791927,
          49.200862226
        ]
      },
      "properties": {
        "name": "Avenue du Professeur Horatio Smith / Rue des Rougeaux",
        "context": "Caen, Calvados",
        "citycode": "14118",
        "depcode": "14"
      }
    },
    {
      "type": "Feature",
      "geometry": {
        "type": "Point",
        "coordinates": [
          -0.364116174,
          49.196776084
        ]
      },
      "properties": {
        "name": "Avenue du Professeur Horatio Smith / Rue des Vikings",
        "context": "Caen, Calvados",
        "citycode": "14118",
        "depcode": "14"
      }
    },
    {
      "type": "Feature",
      "geometry": {
        "type": "Point",
        "coordinates": [
          -0.364958591,
          49.201397214
        ]
      },
      "properties": {
        "name": "Avenue du Professeur Horatio Smith / Rue du Père Sanson",
        "context": "Caen, Calvados",
        "citycode": "14118",
        "depcode": "14"
      }
    },
    {
      "type": "Feature",
      "geometry": {
        "type": "Point",
        "coordinates": [
          -0.364140575,
          49.19846549
        ]
      },
      "properties": {
        "name": "Avenue du Professeur Horatio Smith / Rue Jules Verne",
        "context": "Caen, Calvados",
        "citycode": "14118",
        "depcode": "14"
      }
    },
    {
      "type": "Feature",
      "geometry": {
        "type": "Point",
        "coordinates": [
          -0.401291687,
          49.175766706
        ]
      },
      "properties": {
        "name": "Avenue Enchanteur Merlin / Avenue Charlemagne",
        "context": "Caen, Calvados",
        "citycode": "14118",
        "depcode": "14"
      }
    },
    {
      "type": "Feature",
      "geometry": {
        "type": "Point",
        "coordinates": [
          -0.401275412,
          49.175770916
        ]
      },
      "properties": {
        "name": "Avenue Enchanteur Merlin / Place Venoise",
        "context": "Caen, Calvados",
        "citycode": "14118",
        "depcode": "14"
      }
    },
    {
      "type": "Feature",
      "geometry": {
        "type": "Point",
        "coordinates": [
          -0.342307254,
          49.161406541
        ]
      },
      "properties": {
        "name": "Avenue Flandres Dunkerque / Rue de la Guérinière",
        "context": "Caen, Calvados",
        "citycode": "14118",
        "depcode": "14"
      }
    },
    {
      "type": "Feature",
      "geometry": {
        "type": "Point",
        "coordinates": [
          -0.340326675,
          49.16251721
        ]
      },
      "properties": {
        "name": "Avenue Flandres Dunkerque / Rue de la Lisière",
        "context": "Caen, Calvados",
        "citycode": "14118",
        "depcode": "14"
      }
    },
    {
      "type": "Feature",
      "geometry": {
        "type": "Point",
        "coordinates": [
          -0.361361075,
          49.158736031
        ]
      },
      "properties": {
        "name": "Avenue Général Laperrine / Avenue du 19 Mars 1962",
        "context": "Caen, Calvados",
        "citycode": "14118",
        "depcode": "14"
      }
    },
    {
      "type": "Feature",
      "geometry": {
        "type": "Point",
        "coordinates": [
          -0.361678424,
          49.16126146
        ]
      },
      "properties": {
        "name": "Avenue Général Laperrine / Avenue Père Charles de Foucauld",
        "context": "Caen, Calvados",
        "citycode": "14118",
        "depcode": "14"
      }
    },
    {
      "type": "Feature",
      "geometry": {
        "type": "Point",
        "coordinates": [
          -0.361693802,
          49.161336739
        ]
      },
      "properties": {
        "name": "Avenue Général Laperrine / Rue Michel Crépeau",
        "context": "Caen, Calvados",
        "citycode": "14118",
        "depcode": "14"
      }
    },
    {
      "type": "Feature",
      "geometry": {
        "type": "Point",
        "coordinates": [
          -0.355403697,
          49.187844836
        ]
      },
      "properties": {
        "name": "Avenue Georges Clemenceau / Avenue Croix Guérin",
        "context": "Caen, Calvados",
        "citycode": "14118",
        "depcode": "14"
      }
    },
    {
      "type": "Feature",
      "geometry": {
        "type": "Point",
        "coordinates": [
          -0.355125011,
          49.187797941
        ]
      },
      "properties": {
        "name": "Avenue Georges Clemenceau / Avenue Reine Mathilde",
        "context": "Caen, Calvados",
        "citycode": "14118",
        "depcode": "14"
      }
    },
    {
      "type": "Feature",
      "geometry": {
        "type": "Point",
        "coordinates": [
          -0.346097495,
          49.18936032
        ]
      },
      "properties": {
        "name": "Avenue Georges Clemenceau / Rue de la Masse",
        "context": "Caen, Calvados",
        "citycode": "14118",
        "depcode": "14"
      }
    },
    {
      "type": "Feature",
      "geometry": {
        "type": "Point",
        "coordinates": [
          -0.355403796,
          49.187844625
        ]
      },
      "properties": {
        "name": "Avenue Georges Clemenceau / Rue de la Pigacière",
        "context": "Caen, Calvados",
        "citycode": "14118",
        "depcode": "14"
      }
    },
    {
      "type": "Feature",
      "geometry": {
        "type": "Point",
        "coordinates": [
          -0.355403798,
          49.187844568
        ]
      },
      "properties": {
        "name": "Avenue Georges Clemenceau / Rue des Cordes",
        "context": "Caen, Calvados",
        "citycode": "14118",
        "depcode": "14"
      }
    },
    {
      "type": "Feature",
      "geometry": {
        "type": "Point",
        "coordinates": [
          -0.342748619,
          49.190578583
        ]
      },
      "properties": {
        "name": "Avenue Georges Clemenceau / Rue des Cultures",
        "context": "Caen, Calvados",
        "citycode": "14118",
        "depcode": "14"
      }
    },
    {
      "type": "Feature",
      "geometry": {
        "type": "Point",
        "coordinates": [
          -0.351731998,
          49.188126578
        ]
      },
      "properties": {
        "name": "Avenue Georges Clemenceau / Rue du Clos Beaumois",
        "context": "Caen, Calvados",
        "citycode": "14118",
        "depcode": "14"
      }
    },